{
  "offset": 0,
  "limit": 100,
  "total_items": 38163,
  "items": [
    {
      "rid": 2,
      "name": "Thirsty Bear",
      "address": "661 Howard St.",
      "address2": "",
      "city": "San Francisco",
      "state": "CA",
      "country": "US",
      "latitude": "37.7856500",
      "longitude": "-122.3997340",
      "postal_code": "94105",
      "phone_number": "4159740905",
      "metro_name": "San Francisco Bay Area",
      "reservation_url": "http://www.opentable.com/restaurant/profile/2",
      "profile_url": "http://www.opentable.com/restaurant/profile/2",
      "is_restaurant_in_group": false
    },
    {
      "rid": 4,
      "name": "One Market Restaurant",
      "address": "1 Market Street",
      "address2": "",
      "city": "San Francisco",
      "state": "CA",
      "country": "US",
      "latitude": "37.7938190",
      "longitude": "-122.3950890",
      "postal_code": "94105",
      "phone_number": "4157775577x",
      "metro_name": "San Francisco Bay Area",
      "reservation_url": "http://www.opentable.com/restaurant/profile/4",
      "profile_url": "http://www.opentable.com/restaurant/profile/4",
      "is_restaurant_in_group": false
    },
    {
      "rid": 10,
      "name": "Harris'",
      "address": "2100 Van Ness Avenue",
      "address2": "",
      "city": "San Francisco",
      "state": "CA",
      "country": "US",
      "latitude": "37.7950860",
      "longitude": "-122.4228740",
      "postal_code": "94109",
      "phone_number": "4156731888x",
      "metro_name": "San Francisco Bay Area",
      "reservation_url": "http://www.opentable.com/restaurant/profile/10",
      "profile_url": "http://www.opentable.com/restaurant/profile/10",
      "is_restaurant_in_group": false
    },
    {
      "rid": 12,
      "name": "Lark Creek Walnut Creek",
      "address": "1360 Locust Street",
      "address2": "",
      "city": "Walnut Creek",
      "state": "CA",
      "country": "US",
      "latitude": "37.8984660",
      "longitude": "-122.0618430",
      "postal_code": "94596",
      "phone_number": "9252561234x",
      "metro_name": "San Francisco Bay Area",
      "reservation_url": "http://www.opentable.com/restaurant/profile/12",
      "profile_url": "http://www.opentable.com/restaurant/profile/12",
      "is_restaurant_in_group": false
    },
    {
      "rid": 17,
      "name": "E&O Kitchen and Bar",
      "address": "314 Sutter Street",
      "address2": "",
      "city": "San Francisco",
      "state": "CA",
      "country": "US",
      "latitude": "37.7896160",
      "longitude": "-122.4058460",
      "postal_code": "94108",
      "phone_number": "4156930303x",
      "metro_name": "San Francisco Bay Area",
      "reservation_url": "http://www.opentable.com/restaurant/profile/17",
      "profile_url": "http://www.opentable.com/restaurant/profile/17",
      "is_restaurant_in_group": false
    },
    {
      "rid": 24,
      "name": "INDO Restaurant & Lounge",
      "address": "3295 El Camino Real",
      "address2": "",
      "city": "Palo Alto",
      "state": "CA",
      "country": "US",
      "latitude": "37.4208820",
      "longitude": "-122.1370050",
      "postal_code": "94306",
      "phone_number": "650-494-9184x",
      "metro_name": "San Francisco Bay Area",
      "reservation_url": "http://www.opentable.com/restaurant/profile/24",
      "profile_url": "http://www.opentable.com/restaurant/profile/24",
      "is_restaurant_in_group": false
    },
    {
      "rid": 27,
      "name": "Jardiniere",
      "address": "300 Grove St.",
      "address2": "",
      "city": "San Francisco",
      "state": "CA",
      "country": "US",
      "latitude": "37.7781840",
      "longitude": "-122.4217750",
      "postal_code": "94102",
      "phone_number": "4158615555x",
      "metro_name": "San Francisco Bay Area",
      "reservation_url": "http://www.opentable.com/restaurant/profile/27",
      "profile_url": "http://www.opentable.com/restaurant/profile/27",
      "is_restaurant_in_group": false
    },
    {
      "rid": 30,
      "name": "Campton Place",
      "address": "340 Stockton Street",
      "address2": "",
      "city": "San Francisco",
      "state": "CA",
      "country": "US",
      "latitude": "37.7891570",
      "longitude": "-122.4065560",
      "postal_code": "94108",
      "phone_number": "4159555555x",
      "metro_name": "San Francisco Bay Area",
      "reservation_url": "http://www.opentable.com/restaurant/profile/30",
      "profile_url": "http://www.opentable.com/restaurant/profile/30",
      "is_restaurant_in_group": false
    },
    {
      "rid": 32,
      "name": "Faz Sunnyvale",
      "address": "1108 North Mathilda Ave.",
      "address2": "",
      "city": "Sunnyvale",
      "state": "CA",
      "country": "US",
      "latitude": "37.4046830",
      "longitude": "-122.0247300",
      "postal_code": "94089",
      "phone_number": "4087528000x",
      "metro_name": "San Francisco Bay Area",
      "reservation_url": "http://www.opentable.com/restaurant/profile/32",
      "profile_url": "http://www.opentable.com/restaurant/profile/32",
      "is_restaurant_in_group": false
    },
    {
      "rid": 33,
      "name": "Wildfire - Chicago",
      "address": "159 West Erie St.",
      "address2": "",
      "city": "Chicago",
      "state": "IL",
      "country": "US",
      "latitude": "41.8939980",
      "longitude": "-87.6331370",
      "postal_code": "60654",
      "phone_number": "3127879000x",
      "metro_name": "Chicago / Illinois",
      "reservation_url": "http://www.opentable.com/restaurant/profile/33",
      "profile_url": "http://www.opentable.com/restaurant/profile/33",
      "is_restaurant_in_group": false
    },
    {
      "rid": 37,
      "name": "Le Colonial - SF",
      "address": "20 Cosmo Place",
      "address2": "",
      "city": "San Francisco",
      "state": "CA",
      "country": "US",
      "latitude": "37.7883870",
      "longitude": "-122.4123520",
      "postal_code": "94109",
      "phone_number": "4159313600x",
      "metro_name": "San Francisco Bay Area",
      "reservation_url": "http://www.opentable.com/restaurant/profile/37",
      "profile_url": "http://www.opentable.com/restaurant/profile/37",
      "is_restaurant_in_group": false
    },
    {
      "rid": 40,
      "name": "Faz Pleasanton",
      "address": "5121 Hopyard Road",
      "address2": "",
      "city": "Pleasanton",
      "state": "CA",
      "country": "US",
      "latitude": "37.6968560",
      "longitude": "-121.9034610",
      "postal_code": "94588",
      "phone_number": "9254600444x",
      "metro_name": "San Francisco Bay Area",
      "reservation_url": "http://www.opentable.com/restaurant/profile/40",
      "profile_url": "http://www.opentable.com/restaurant/profile/40",
      "is_restaurant_in_group": false
    },
    {
      "rid": 41,
      "name": "Farallon",
      "address": "450 Post Street",
      "address2": "",
      "city": "San Francisco",
      "state": "CA",
      "country": "US",
      "latitude": "37.7884570",
      "longitude": "-122.4093680",
      "postal_code": "94102",
      "phone_number": "4159566969x",
      "metro_name": "San Francisco Bay Area",
      "reservation_url": "http://www.opentable.com/restaurant/profile/41",
      "profile_url": "http://www.opentable.com/restaurant/profile/41",
      "is_restaurant_in_group": false
    },
    {
      "rid": 42,
      "name": "Faz Danville",
      "address": "600 Hartz Avenue",
      "address2": "",
      "city": "Danville",
      "state": "CA",
      "country": "US",
      "latitude": "37.8202020",
      "longitude": "-121.9969260",
      "postal_code": "94526",
      "phone_number": "9258381320x",
      "metro_name": "San Francisco Bay Area",
      "reservation_url": "http://www.opentable.com/restaurant/profile/42",
      "profile_url": "http://www.opentable.com/restaurant/profile/42",
      "is_restaurant_in_group": false
    },
    {
      "rid": 47,
      "name": "Shaw's Crab House - Chicago",
      "address": "21 East Hubbard St.",
      "address2": "",
      "city": "Chicago",
      "state": "IL",
      "country": "US",
      "latitude": "41.8899100",
      "longitude": "-87.6274230",
      "postal_code": "60611",
      "phone_number": "3125272722x",
      "metro_name": "Chicago / Illinois",
      "reservation_url": "http://www.opentable.com/restaurant/profile/47",
      "profile_url": "http://www.opentable.com/restaurant/profile/47",
      "is_restaurant_in_group": false
    },
    {
      "rid": 49,
      "name": "Mathilde Bistro",
      "address": "315 Fifth St.",
      "address2": "",
      "city": "San Francisco",
      "state": "CA",
      "country": "US",
      "latitude": "37.7799670",
      "longitude": "-122.4030140",
      "postal_code": "94107",
      "phone_number": "4155466128x",
      "metro_name": "San Francisco Bay Area",
      "reservation_url": "http://www.opentable.com/restaurant/profile/49",
      "profile_url": "http://www.opentable.com/restaurant/profile/49",
      "is_restaurant_in_group": false
    },
    {
      "rid": 55,
      "name": "The Waterfront Restaurant and Cafe",
      "address": "Pier 7 on the Embarcadero",
      "address2": "",
      "city": "San Francisco",
      "state": "CA",
      "country": "US",
      "latitude": "37.7993210",
      "longitude": "-122.3975790",
      "postal_code": "94111",
      "phone_number": "415 391 2696x",
      "metro_name": "San Francisco Bay Area",
      "reservation_url": "http://www.opentable.com/restaurant/profile/55",
      "profile_url": "http://www.opentable.com/restaurant/profile/55",
      "is_restaurant_in_group": false
    },
    {
      "rid": 75,
      "name": "SOUTHGATE Bar & Restaurant",
      "address": "154 Central Park South",
      "address2": "",
      "city": "New York",
      "state": "NY",
      "country": "US",
      "latitude": "40.7663360",
      "longitude": "-73.9778010",
      "postal_code": "10019",
      "phone_number": "2124845120x",
      "metro_name": "New York / Tri-State Area",
      "reservation_url": "http://www.opentable.com/restaurant/profile/75",
      "profile_url": "http://www.opentable.com/restaurant/profile/75",
      "is_restaurant_in_group": false
    },
    {
      "rid": 79,
      "name": "Michael's",
      "address": "24 West 55th Street",
      "address2": "",
      "city": "New York",
      "state": "NY",
      "country": "US",
      "latitude": "40.7621300",
      "longitude": "-73.9762230",
      "postal_code": "10019",
      "phone_number": "2127670555x1",
      "metro_name": "New York / Tri-State Area",
      "reservation_url": "http://www.opentable.com/restaurant/profile/79",
      "profile_url": "http://www.opentable.com/restaurant/profile/79",
      "is_restaurant_in_group": false
    },
    {
      "rid": 83,
      "name": "Michael's - Santa Monica",
      "address": "1147 3rd St.",
      "address2": "",
      "city": "Santa Monica",
      "state": "CA",
      "country": "US",
      "latitude": "34.0191760",
      "longitude": "-118.5000100",
      "postal_code": "90403",
      "phone_number": "310-451-0843x",
      "metro_name": "Los Angeles",
      "reservation_url": "http://www.opentable.com/restaurant/profile/83",
      "profile_url": "http://www.opentable.com/restaurant/profile/83",
      "is_restaurant_in_group": false
    },
    {
      "rid": 90,
      "name": "Tratto",
      "address": "501 Geary St.",
      "address2": "",
      "city": "San Francisco",
      "state": "CA",
      "country": "US",
      "latitude": "37.7866170",
      "longitude": "-122.4118110",
      "postal_code": "94109",
      "phone_number": "4152920101x",
      "metro_name": "San Francisco Bay Area",
      "reservation_url": "http://www.opentable.com/restaurant/profile/90",
      "profile_url": "http://www.opentable.com/restaurant/profile/90",
      "is_restaurant_in_group": false
    },
    {
      "rid": 101,
      "name": "Alcala",
      "address": "246 East 44th Street",
      "address2": "",
      "city": "New York",
      "state": "NY",
      "country": "US",
      "latitude": "40.7518060",
      "longitude": "-73.9694480",
      "postal_code": "10017",
      "phone_number": "2123701866",
      "metro_name": "New York / Tri-State Area",
      "reservation_url": "http://www.opentable.com/restaurant/profile/101",
      "profile_url": "http://www.opentable.com/restaurant/profile/101",
      "is_restaurant_in_group": false
    },
    {
      "rid": 102,
      "name": "Ray's Boathouse",
      "address": "6049 Seaview Ave.",
      "address2": "",
      "city": "Seattle",
      "state": "WA",
      "country": "US",
      "latitude": "47.6724930",
      "longitude": "-122.4063300",
      "postal_code": "98107",
      "phone_number": "2067893770x",
      "metro_name": "Seattle / Eastern Washington",
      "reservation_url": "http://www.opentable.com/restaurant/profile/102",
      "profile_url": "http://www.opentable.com/restaurant/profile/102",
      "is_restaurant_in_group": false
    },
    {
      "rid": 104,
      "name": "Nacional 27",
      "address": "325 W. Huron",
      "address2": "",
      "city": "Chicago",
      "state": "IL",
      "country": "US",
      "latitude": "41.8951060",
      "longitude": "-87.6358580",
      "postal_code": "60654",
      "phone_number": "3126642727x",
      "metro_name": "Chicago / Illinois",
      "reservation_url": "http://www.opentable.com/restaurant/profile/104",
      "profile_url": "http://www.opentable.com/restaurant/profile/104",
      "is_restaurant_in_group": false
    },
    {
      "rid": 108,
      "name": "Dahlia Lounge",
      "address": "2001 4th Ave.",
      "address2": "",
      "city": "Seattle",
      "state": "WA",
      "country": "US",
      "latitude": "47.6129900",
      "longitude": "-122.3401900",
      "postal_code": "98121",
      "phone_number": "2066824142x",
      "metro_name": "Seattle / Eastern Washington",
      "reservation_url": "http://www.opentable.com/restaurant/profile/108",
      "profile_url": "http://www.opentable.com/restaurant/profile/108",
      "is_restaurant_in_group": false
    },
    {
      "rid": 110,
      "name": "Atwood",
      "address": "1 West Washington St.",
      "address2": "",
      "city": "Chicago",
      "state": "IL",
      "country": "US",
      "latitude": "41.8830630",
      "longitude": "-87.6279830",
      "postal_code": "60602",
      "phone_number": "3123681900x",
      "metro_name": "Chicago / Illinois",
      "reservation_url": "http://www.opentable.com/restaurant/profile/110",
      "profile_url": "http://www.opentable.com/restaurant/profile/110",
      "is_restaurant_in_group": false
    },
    {
      "rid": 117,
      "name": "Brasserie S&P at Loews San Francisco Hotel",
      "address": "222 Sansome St.",
      "address2": "",
      "city": "San Francisco",
      "state": "CA",
      "country": "US",
      "latitude": "37.7924630",
      "longitude": "-122.4009820",
      "postal_code": "94104",
      "phone_number": "415-276-9620x",
      "metro_name": "San Francisco Bay Area",
      "reservation_url": "http://www.opentable.com/restaurant/profile/117",
      "profile_url": "http://www.opentable.com/restaurant/profile/117",
      "is_restaurant_in_group": false
    },
    {
      "rid": 120,
      "name": "Paradiso",
      "address": "685 Bancroft Avenue",
      "address2": "",
      "city": "San Leandro",
      "state": "CA",
      "country": "US",
      "latitude": "37.7330060",
      "longitude": "-122.1509870",
      "postal_code": "94577",
      "phone_number": "5104309310x",
      "metro_name": "San Francisco Bay Area",
      "reservation_url": "http://www.opentable.com/restaurant/profile/120",
      "profile_url": "http://www.opentable.com/restaurant/profile/120",
      "is_restaurant_in_group": false
    },
    {
      "rid": 122,
      "name": "Pescatore",
      "address": "2455 Mason Street",
      "address2": "",
      "city": "San Francisco",
      "state": "CA",
      "country": "US",
      "latitude": "37.8061670",
      "longitude": "-122.4137110",
      "postal_code": "94133",
      "phone_number": "4155611111",
      "metro_name": "San Francisco Bay Area",
      "reservation_url": "http://www.opentable.com/restaurant/profile/122",
      "profile_url": "http://www.opentable.com/restaurant/profile/122",
      "is_restaurant_in_group": false
    },
    {
      "rid": 124,
      "name": "I Trulli",
      "address": "122 East 27th Street",
      "address2": "",
      "city": "New York",
      "state": "NY",
      "country": "US",
      "latitude": "40.7421370",
      "longitude": "-73.9835740",
      "postal_code": "10016",
      "phone_number": "2124817372",
      "metro_name": "New York / Tri-State Area",
      "reservation_url": "http://www.opentable.com/restaurant/profile/124",
      "profile_url": "http://www.opentable.com/restaurant/profile/124",
      "is_restaurant_in_group": false
    },
    {
      "rid": 126,
      "name": "Blackhawk Grille",
      "address": "3540 Blackhawk Plaza Circle",
      "address2": "",
      "city": "Danville",
      "state": "CA",
      "country": "US",
      "latitude": "37.7999770",
      "longitude": "-121.9182700",
      "postal_code": "94506",
      "phone_number": "9257364295",
      "metro_name": "San Francisco Bay Area",
      "reservation_url": "http://www.opentable.com/restaurant/profile/126",
      "profile_url": "http://www.opentable.com/restaurant/profile/126",
      "is_restaurant_in_group": false
    },
    {
      "rid": 130,
      "name": "Boulevard",
      "address": "1 Mission St.",
      "address2": "",
      "city": "San Francisco",
      "state": "CA",
      "country": "US",
      "latitude": "37.7933200",
      "longitude": "-122.3927610",
      "postal_code": "94105",
      "phone_number": "4155436084x",
      "metro_name": "San Francisco Bay Area",
      "reservation_url": "http://www.opentable.com/restaurant/profile/130",
      "profile_url": "http://www.opentable.com/restaurant/profile/130",
      "is_restaurant_in_group": false
    },
    {
      "rid": 134,
      "name": "312 Chicago",
      "address": "136 N. La Salle St.",
      "address2": "",
      "city": "Chicago",
      "state": "IL",
      "country": "US",
      "latitude": "41.8841120",
      "longitude": "-87.6325830",
      "postal_code": "60602",
      "phone_number": "3126962420x",
      "metro_name": "Chicago / Illinois",
      "reservation_url": "http://www.opentable.com/restaurant/profile/134",
      "profile_url": "http://www.opentable.com/restaurant/profile/134",
      "is_restaurant_in_group": false
    },
    {
      "rid": 138,
      "name": "South Water Kitchen",
      "address": "225 N. Wabash Ave.",
      "address2": "",
      "city": "Chicago",
      "state": "IL",
      "country": "US",
      "latitude": "41.8860520",
      "longitude": "-87.6261150",
      "postal_code": "60601",
      "phone_number": "3122369300x",
      "metro_name": "Chicago / Illinois",
      "reservation_url": "http://www.opentable.com/restaurant/profile/138",
      "profile_url": "http://www.opentable.com/restaurant/profile/138",
      "is_restaurant_in_group": false
    },
    {
      "rid": 139,
      "name": "Red Star",
      "address": "503 SW Alder St.",
      "address2": "",
      "city": "Portland",
      "state": "OR",
      "country": "US",
      "latitude": "45.5207040",
      "longitude": "-122.6781000",
      "postal_code": "97204",
      "phone_number": "5032220005x",
      "metro_name": "Portland / Oregon",
      "reservation_url": "http://www.opentable.com/restaurant/profile/139",
      "profile_url": "http://www.opentable.com/restaurant/profile/139",
      "is_restaurant_in_group": false
    },
    {
      "rid": 141,
      "name": "ANZU",
      "address": "222 Mason St.",
      "address2": "",
      "city": "San Francisco",
      "state": "CA",
      "country": "US",
      "latitude": "37.7856790",
      "longitude": "-122.4092530",
      "postal_code": "94102",
      "phone_number": "4153941100x",
      "metro_name": "San Francisco Bay Area",
      "reservation_url": "http://www.opentable.com/restaurant/profile/141",
      "profile_url": "http://www.opentable.com/restaurant/profile/141",
      "is_restaurant_in_group": false
    },
    {
      "rid": 144,
      "name": "Pazzo Ristorante",
      "address": "627 SW Washington St.",
      "address2": "",
      "city": "Portland",
      "state": "OR",
      "country": "US",
      "latitude": "45.5207040",
      "longitude": "-122.6781000",
      "postal_code": "97205",
      "phone_number": "5032281515x",
      "metro_name": "Portland / Oregon",
      "reservation_url": "http://www.opentable.com/restaurant/profile/144",
      "profile_url": "http://www.opentable.com/restaurant/profile/144",
      "is_restaurant_in_group": false
    },
    {
      "rid": 147,
      "name": "Birk's",
      "address": "3955 Freedom Circle",
      "address2": "",
      "city": "Santa Clara",
      "state": "CA",
      "country": "US",
      "latitude": "37.3861330",
      "longitude": "-121.9722900",
      "postal_code": "95054",
      "phone_number": "4089806400x",
      "metro_name": "San Francisco Bay Area",
      "reservation_url": "http://www.opentable.com/restaurant/profile/147",
      "profile_url": "http://www.opentable.com/restaurant/profile/147",
      "is_restaurant_in_group": false
    },
    {
      "rid": 148,
      "name": "Cocotte",
      "address": "1521 Hyde St.",
      "address2": "",
      "city": "San Francisco",
      "state": "CA",
      "country": "US",
      "latitude": "37.7948770",
      "longitude": "-122.4182530",
      "postal_code": "94109",
      "phone_number": "4152924415x",
      "metro_name": "San Francisco Bay Area",
      "reservation_url": "http://www.opentable.com/restaurant/profile/148",
      "profile_url": "http://www.opentable.com/restaurant/profile/148",
      "is_restaurant_in_group": false
    },
    {
      "rid": 158,
      "name": "RoSal's",
      "address": "1154 W. Taylor St.",
      "address2": "",
      "city": "Chicago",
      "state": "IL",
      "country": "US",
      "latitude": "41.8696370",
      "longitude": "-87.6558270",
      "postal_code": "60607",
      "phone_number": "3122432357x",
      "metro_name": "Chicago / Illinois",
      "reservation_url": "http://www.opentable.com/restaurant/profile/158",
      "profile_url": "http://www.opentable.com/restaurant/profile/158",
      "is_restaurant_in_group": false
    },
    {
      "rid": 159,
      "name": "Scala's Bistro",
      "address": "432 Powell St.",
      "address2": "",
      "city": "San Francisco",
      "state": "CA",
      "country": "US",
      "latitude": "37.7889840",
      "longitude": "-122.4082260",
      "postal_code": "94102",
      "phone_number": "4153958555x",
      "metro_name": "San Francisco Bay Area",
      "reservation_url": "http://www.opentable.com/restaurant/profile/159",
      "profile_url": "http://www.opentable.com/restaurant/profile/159",
      "is_restaurant_in_group": false
    },
    {
      "rid": 162,
      "name": "Kiki's Bistro",
      "address": "900 N. Franklin St. ",
      "address2": "",
      "city": "Chicago",
      "state": "IL",
      "country": "US",
      "latitude": "41.8990260",
      "longitude": "-87.6359970",
      "postal_code": "60610",
      "phone_number": "3123355454",
      "metro_name": "Chicago / Illinois",
      "reservation_url": "http://www.opentable.com/restaurant/profile/162",
      "profile_url": "http://www.opentable.com/restaurant/profile/162",
      "is_restaurant_in_group": false
    },
    {
      "rid": 167,
      "name": "Cafe Tiramisu",
      "address": "28 Belden Place",
      "address2": "",
      "city": "San Francisco",
      "state": "CA",
      "country": "US",
      "latitude": "37.7912050",
      "longitude": "-122.4036100",
      "postal_code": "94104",
      "phone_number": "4154217044",
      "metro_name": "San Francisco Bay Area",
      "reservation_url": "http://www.opentable.com/restaurant/profile/167",
      "profile_url": "http://www.opentable.com/restaurant/profile/167",
      "is_restaurant_in_group": false
    },
    {
      "rid": 168,
      "name": "TRU",
      "address": "676 North Saint Clair Street",
      "address2": "",
      "city": "Chicago",
      "state": "IL",
      "country": "US",
      "latitude": "41.8945220",
      "longitude": "-87.6229370",
      "postal_code": "60611",
      "phone_number": "3122020001",
      "metro_name": "Chicago / Illinois",
      "reservation_url": "http://www.opentable.com/restaurant/profile/168",
      "profile_url": "http://www.opentable.com/restaurant/profile/168",
      "is_restaurant_in_group": false
    },
    {
      "rid": 174,
      "name": "Molyvos",
      "address": "871 7th Avenue",
      "address2": "",
      "city": "New York",
      "state": "NY",
      "country": "US",
      "latitude": "40.7644260",
      "longitude": "-73.9806460",
      "postal_code": "10019",
      "phone_number": "2125827500x",
      "metro_name": "New York / Tri-State Area",
      "reservation_url": "http://www.opentable.com/restaurant/profile/174",
      "profile_url": "http://www.opentable.com/restaurant/profile/174",
      "is_restaurant_in_group": false
    },
    {
      "rid": 178,
      "name": "Oceana",
      "address": "120 West 49th Street",
      "address2": "",
      "city": "New York",
      "state": "NY",
      "country": "US",
      "latitude": "40.7591640",
      "longitude": "-73.9813650",
      "postal_code": "10020",
      "phone_number": "212 759 5941x",
      "metro_name": "New York / Tri-State Area",
      "reservation_url": "http://www.opentable.com/restaurant/profile/178",
      "profile_url": "http://www.opentable.com/restaurant/profile/178",
      "is_restaurant_in_group": false
    },
    {
      "rid": 179,
      "name": "Grand Central Oyster Bar",
      "address": "Grand Central Terminal",
      "address2": "89 E. 42nd St.",
      "city": "New York",
      "state": "NY",
      "country": "US",
      "latitude": "40.7525910",
      "longitude": "-73.9773090",
      "postal_code": "10017",
      "phone_number": "2124906650x",
      "metro_name": "New York / Tri-State Area",
      "reservation_url": "http://www.opentable.com/restaurant/profile/179",
      "profile_url": "http://www.opentable.com/restaurant/profile/179",
      "is_restaurant_in_group": false
    },
    {
      "rid": 183,
      "name": "La Folie",
      "address": "2316 Polk St.",
      "address2": "",
      "city": "San Francisco",
      "state": "CA",
      "country": "US",
      "latitude": "37.7981250",
      "longitude": "-122.4222310",
      "postal_code": "94109",
      "phone_number": "4157765577x",
      "metro_name": "San Francisco Bay Area",
      "reservation_url": "http://www.opentable.com/restaurant/profile/183",
      "profile_url": "http://www.opentable.com/restaurant/profile/183",
      "is_restaurant_in_group": false
    },
    {
      "rid": 184,
      "name": "Palomino - Seattle",
      "address": "1420 5th Ave.",
      "address2": "",
      "city": "Seattle",
      "state": "WA",
      "country": "US",
      "latitude": "47.6100260",
      "longitude": "-122.3346700",
      "postal_code": "98101",
      "phone_number": "2066231300x",
      "metro_name": "Seattle / Eastern Washington",
      "reservation_url": "http://www.opentable.com/restaurant/profile/184",
      "profile_url": "http://www.opentable.com/restaurant/profile/184",
      "is_restaurant_in_group": false
    },
    {
      "rid": 192,
      "name": "The Basin",
      "address": "14572 Big Basin Way",
      "address2": "",
      "city": "Saratoga",
      "state": "CA",
      "country": "US",
      "latitude": "37.2560010",
      "longitude": "-122.0351560",
      "postal_code": "95070",
      "phone_number": "4088671906x",
      "metro_name": "San Francisco Bay Area",
      "reservation_url": "http://www.opentable.com/restaurant/profile/192",
      "profile_url": "http://www.opentable.com/restaurant/profile/192",
      "is_restaurant_in_group": false
    },
    {
      "rid": 200,
      "name": "Jasper's Corner Tap and Kitchen",
      "address": "401 Taylor St",
      "address2": "",
      "city": "San Francisco",
      "state": "CA",
      "country": "US",
      "latitude": "37.7860510",
      "longitude": "-122.4113670",
      "postal_code": "94102",
      "phone_number": "4157757979x",
      "metro_name": "San Francisco Bay Area",
      "reservation_url": "http://www.opentable.com/restaurant/profile/200",
      "profile_url": "http://www.opentable.com/restaurant/profile/200",
      "is_restaurant_in_group": false
    },
    {
      "rid": 202,
      "name": "Capo",
      "address": "1810 Ocean Ave.",
      "address2": "",
      "city": "Santa Monica",
      "state": "CA",
      "country": "US",
      "latitude": "34.0078660",
      "longitude": "-118.4910500",
      "postal_code": "90401",
      "phone_number": "3103945550x",
      "metro_name": "Los Angeles",
      "reservation_url": "http://www.opentable.com/restaurant/profile/202",
      "profile_url": "http://www.opentable.com/restaurant/profile/202",
      "is_restaurant_in_group": false
    },
    {
      "rid": 203,
      "name": "The Brentwood Restaurant and Lounge",
      "address": "148 S. Barrington Ave.",
      "address2": "",
      "city": "Los Angeles",
      "state": "CA",
      "country": "US",
      "latitude": "34.0646640",
      "longitude": "-118.4691000",
      "postal_code": "90049",
      "phone_number": "3104763511x",
      "metro_name": "Los Angeles",
      "reservation_url": "http://www.opentable.com/restaurant/profile/203",
      "profile_url": "http://www.opentable.com/restaurant/profile/203",
      "is_restaurant_in_group": false
    },
    {
      "rid": 209,
      "name": "Piatti - Mill Valley",
      "address": "625 Redwood Highway",
      "address2": "",
      "city": "Mill Valley",
      "state": "CA",
      "country": "US",
      "latitude": "37.8925830",
      "longitude": "-122.5165930",
      "postal_code": "94941",
      "phone_number": "4153802525x",
      "metro_name": "San Francisco Bay Area",
      "reservation_url": "http://www.opentable.com/restaurant/profile/209",
      "profile_url": "http://www.opentable.com/restaurant/profile/209",
      "is_restaurant_in_group": false
    },
    {
      "rid": 226,
      "name": "Left Bank Menlo Park",
      "address": "635 Santa Cruz Ave.",
      "address2": "",
      "city": "Menlo Park",
      "state": "CA",
      "country": "US",
      "latitude": "37.4526290",
      "longitude": "-122.1833700",
      "postal_code": "94025",
      "phone_number": "6504736543",
      "metro_name": "San Francisco Bay Area",
      "reservation_url": "http://www.opentable.com/restaurant/profile/226",
      "profile_url": "http://www.opentable.com/restaurant/profile/226",
      "is_restaurant_in_group": false
    },
    {
      "rid": 227,
      "name": "Left Bank Larkspur",
      "address": "507 Magnolia Ave.",
      "address2": "",
      "city": "Larkspur",
      "state": "CA",
      "country": "US",
      "latitude": "37.9363530",
      "longitude": "-122.5351080",
      "postal_code": "94939",
      "phone_number": "4159273331",
      "metro_name": "San Francisco Bay Area",
      "reservation_url": "http://www.opentable.com/restaurant/profile/227",
      "profile_url": "http://www.opentable.com/restaurant/profile/227",
      "is_restaurant_in_group": false
    },
    {
      "rid": 233,
      "name": "Marcel's by Robert Wiedmaier",
      "address": "2401 Pennsylvania Ave.",
      "address2": "",
      "city": "Washington",
      "state": "DC",
      "country": "US",
      "latitude": "38.9030890",
      "longitude": "-77.0514990",
      "postal_code": "20037",
      "phone_number": "2022961166x",
      "metro_name": "Washington, D.C. Area",
      "reservation_url": "http://www.opentable.com/restaurant/profile/233",
      "profile_url": "http://www.opentable.com/restaurant/profile/233",
      "is_restaurant_in_group": false
    },
    {
      "rid": 239,
      "name": "Salty's at Redondo Beach",
      "address": "28201 Redondo Beach Drive South",
      "address2": "",
      "city": "Des Moines",
      "state": "WA",
      "country": "US",
      "latitude": "47.3491230",
      "longitude": "-122.3244600",
      "postal_code": "98198",
      "phone_number": "2539460636x",
      "metro_name": "Seattle / Eastern Washington",
      "reservation_url": "http://www.opentable.com/restaurant/profile/239",
      "profile_url": "http://www.opentable.com/restaurant/profile/239",
      "is_restaurant_in_group": false
    },
    {
      "rid": 241,
      "name": "Dirty Habit",
      "address": "12 Fourth St.",
      "address2": "",
      "city": "San Francisco",
      "state": "CA",
      "country": "US",
      "latitude": "37.7856200",
      "longitude": "-122.4056780",
      "postal_code": "94103",
      "phone_number": "4153481555x",
      "metro_name": "San Francisco Bay Area",
      "reservation_url": "http://www.opentable.com/restaurant/profile/241",
      "profile_url": "http://www.opentable.com/restaurant/profile/241",
      "is_restaurant_in_group": false
    },
    {
      "rid": 252,
      "name": "MK The Restaurant",
      "address": "868 N. Franklin",
      "address2": "",
      "city": "Chicago",
      "state": "IL",
      "country": "US",
      "latitude": "41.8984700",
      "longitude": "-87.6359830",
      "postal_code": "60610",
      "phone_number": "3124829179x",
      "metro_name": "Chicago / Illinois",
      "reservation_url": "http://www.opentable.com/restaurant/profile/252",
      "profile_url": "http://www.opentable.com/restaurant/profile/252",
      "is_restaurant_in_group": false
    },
    {
      "rid": 254,
      "name": "Viognier",
      "address": "222 E. 4th Ave.",
      "address2": "",
      "city": "San Mateo",
      "state": "CA",
      "country": "US",
      "latitude": "37.5644480",
      "longitude": "-122.3219970",
      "postal_code": "94401",
      "phone_number": "6506853727x",
      "metro_name": "San Francisco Bay Area",
      "reservation_url": "http://www.opentable.com/restaurant/profile/254",
      "profile_url": "http://www.opentable.com/restaurant/profile/254",
      "is_restaurant_in_group": false
    },
    {
      "rid": 255,
      "name": "Larkspur Events & Dining",
      "address": "458 Vail Valley Drive",
      "address2": "",
      "city": "Vail",
      "state": "CO",
      "country": "US",
      "latitude": "39.6395390",
      "longitude": "-106.3700700",
      "postal_code": "81657",
      "phone_number": "(970)754-8050  x",
      "metro_name": "Denver / Colorado",
      "reservation_url": "http://www.opentable.com/restaurant/profile/255",
      "profile_url": "http://www.opentable.com/restaurant/profile/255",
      "is_restaurant_in_group": false
    },
    {
      "rid": 256,
      "name": "Buckeye Roadhouse",
      "address": "15 Shoreline Highway",
      "address2": "",
      "city": "Mill Valley",
      "state": "CA",
      "country": "US",
      "latitude": "37.8785530",
      "longitude": "-122.5162670",
      "postal_code": "94941",
      "phone_number": "4153312600",
      "metro_name": "San Francisco Bay Area",
      "reservation_url": "http://www.opentable.com/restaurant/profile/256",
      "profile_url": "http://www.opentable.com/restaurant/profile/256",
      "is_restaurant_in_group": false
    },
    {
      "rid": 257,
      "name": "Palio d'Asti",
      "address": "640 Sacramento Street",
      "address2": "",
      "city": "San Francisco",
      "state": "CA",
      "country": "US",
      "latitude": "37.7939240",
      "longitude": "-122.4036900",
      "postal_code": "94111",
      "phone_number": "4153959800x",
      "metro_name": "San Francisco Bay Area",
      "reservation_url": "http://www.opentable.com/restaurant/profile/257",
      "profile_url": "http://www.opentable.com/restaurant/profile/257",
      "is_restaurant_in_group": false
    },
    {
      "rid": 266,
      "name": "Kinzie Chophouse",
      "address": "400 N. Wells St.",
      "address2": "",
      "city": "Chicago",
      "state": "IL",
      "country": "US",
      "latitude": "41.8893370",
      "longitude": "-87.6341830",
      "postal_code": "60610",
      "phone_number": "3128220191x",
      "metro_name": "Chicago / Illinois",
      "reservation_url": "http://www.opentable.com/restaurant/profile/266",
      "profile_url": "http://www.opentable.com/restaurant/profile/266",
      "is_restaurant_in_group": false
    },
    {
      "rid": 271,
      "name": "Occidental Grill & Seafood",
      "address": "1475 Pennsylvania Ave NW",
      "address2": "",
      "city": "Washington",
      "state": "DC",
      "country": "US",
      "latitude": "38.8965380",
      "longitude": "-77.0330820",
      "postal_code": "20004",
      "phone_number": "2027831475x",
      "metro_name": "Washington, D.C. Area",
      "reservation_url": "http://www.opentable.com/restaurant/profile/271",
      "profile_url": "http://www.opentable.com/restaurant/profile/271",
      "is_restaurant_in_group": false
    },
    {
      "rid": 274,
      "name": "Geja's Caf√©",
      "address": "340 W. Armitage",
      "address2": "",
      "city": "Chicago",
      "state": "IL",
      "country": "US",
      "latitude": "41.9184370",
      "longitude": "-87.6379710",
      "postal_code": "60614",
      "phone_number": "7732819101x",
      "metro_name": "Chicago / Illinois",
      "reservation_url": "http://www.opentable.com/restaurant/profile/274",
      "profile_url": "http://www.opentable.com/restaurant/profile/274",
      "is_restaurant_in_group": false
    },
    {
      "rid": 276,
      "name": "Checkers Downtown",
      "address": "535 South Grand Ave.",
      "address2": "",
      "city": "Los Angeles",
      "state": "CA",
      "country": "US",
      "latitude": "34.0497160",
      "longitude": "-118.2545200",
      "postal_code": "90071",
      "phone_number": "2138910519",
      "metro_name": "Los Angeles",
      "reservation_url": "http://www.opentable.com/restaurant/profile/276",
      "profile_url": "http://www.opentable.com/restaurant/profile/276",
      "is_restaurant_in_group": false
    },
    {
      "rid": 281,
      "name": "Aquavit",
      "address": "65 East 55th Street",
      "address2": "",
      "city": "New York",
      "state": "NY",
      "country": "US",
      "latitude": "40.7609190",
      "longitude": "-73.9722880",
      "postal_code": "10022",
      "phone_number": "2123077311x",
      "metro_name": "New York / Tri-State Area",
      "reservation_url": "http://www.opentable.com/restaurant/profile/281",
      "profile_url": "http://www.opentable.com/restaurant/profile/281",
      "is_restaurant_in_group": false
    },
    {
      "rid": 282,
      "name": "Ideale",
      "address": "1309 Grant Avenue",
      "address2": "",
      "city": "San Francisco",
      "state": "CA",
      "country": "US",
      "latitude": "37.7989690",
      "longitude": "-122.4073120",
      "postal_code": "94109",
      "phone_number": "4153914129x",
      "metro_name": "San Francisco Bay Area",
      "reservation_url": "http://www.opentable.com/restaurant/profile/282",
      "profile_url": "http://www.opentable.com/restaurant/profile/282",
      "is_restaurant_in_group": false
    },
    {
      "rid": 301,
      "name": "21 Club",
      "address": "21 West 52nd Street",
      "address2": "",
      "city": "New York",
      "state": "NY",
      "country": "US",
      "latitude": "40.7602250",
      "longitude": "-73.9770600",
      "postal_code": "10019",
      "phone_number": "2125827200x",
      "metro_name": "New York / Tri-State Area",
      "reservation_url": "http://www.opentable.com/restaurant/profile/301",
      "profile_url": "http://www.opentable.com/restaurant/profile/301",
      "is_restaurant_in_group": false
    },
    {
      "rid": 306,
      "name": "Peasant",
      "address": "194 Elizabeth Street",
      "address2": "",
      "city": "New York",
      "state": "NY",
      "country": "US",
      "latitude": "40.7216960",
      "longitude": "-73.9942720",
      "postal_code": "10012",
      "phone_number": "2129659511",
      "metro_name": "New York / Tri-State Area",
      "reservation_url": "http://www.opentable.com/restaurant/profile/306",
      "profile_url": "http://www.opentable.com/restaurant/profile/306",
      "is_restaurant_in_group": false
    },
    {
      "rid": 319,
      "name": "James' Beach",
      "address": "60 North Venice Blvd.",
      "address2": "",
      "city": "Venice",
      "state": "CA",
      "country": "US",
      "latitude": "33.9846170",
      "longitude": "-118.4704500",
      "postal_code": "90291",
      "phone_number": "3108235396x",
      "metro_name": "Los Angeles",
      "reservation_url": "http://www.opentable.com/restaurant/profile/319",
      "profile_url": "http://www.opentable.com/restaurant/profile/319",
      "is_restaurant_in_group": false
    },
    {
      "rid": 320,
      "name": "Canal Club",
      "address": "2025 Pacific Avenue",
      "address2": "",
      "city": "Venice",
      "state": "CA",
      "country": "US",
      "latitude": "33.9851060",
      "longitude": "-118.4703500",
      "postal_code": "90291",
      "phone_number": "3108233878x",
      "metro_name": "Los Angeles",
      "reservation_url": "http://www.opentable.com/restaurant/profile/320",
      "profile_url": "http://www.opentable.com/restaurant/profile/320",
      "is_restaurant_in_group": false
    },
    {
      "rid": 322,
      "name": "Cafe Juanita",
      "address": "9702 NE 120th Place",
      "address2": "",
      "city": "Kirkland",
      "state": "WA",
      "country": "US",
      "latitude": "47.7074150",
      "longitude": "-122.2124300",
      "postal_code": "98034-4206",
      "phone_number": "(425)823-1505x",
      "metro_name": "Seattle / Eastern Washington",
      "reservation_url": "http://www.opentable.com/restaurant/profile/322",
      "profile_url": "http://www.opentable.com/restaurant/profile/322",
      "is_restaurant_in_group": false
    },
    {
      "rid": 328,
      "name": "Trace",
      "address": "1112 4th Ave.",
      "address2": "",
      "city": "Seattle",
      "state": "WA",
      "country": "US",
      "latitude": "47.6073760",
      "longitude": "-122.3336380",
      "postal_code": "98101",
      "phone_number": "2062646060x",
      "metro_name": "Seattle / Eastern Washington",
      "reservation_url": "http://www.opentable.com/restaurant/profile/328",
      "profile_url": "http://www.opentable.com/restaurant/profile/328",
      "is_restaurant_in_group": false
    },
    {
      "rid": 333,
      "name": "Menlo Grill Bistro & Bar",
      "address": "100 El Camino Real",
      "address2": "",
      "city": "Menlo Park",
      "state": "CA",
      "country": "US",
      "latitude": "37.4476930",
      "longitude": "-122.1727640",
      "postal_code": "94025",
      "phone_number": "6503302790",
      "metro_name": "San Francisco Bay Area",
      "reservation_url": "http://www.opentable.com/restaurant/profile/333",
      "profile_url": "http://www.opentable.com/restaurant/profile/333",
      "is_restaurant_in_group": false
    },
    {
      "rid": 334,
      "name": "Bin 36",
      "address": "161 N. Jefferson St",
      "address2": "",
      "city": "Chicago",
      "state": "IL",
      "country": "US",
      "latitude": "41.8850870",
      "longitude": "-87.6422760",
      "postal_code": "60661",
      "phone_number": "312-995 -6560x",
      "metro_name": "Chicago / Illinois",
      "reservation_url": "http://www.opentable.com/restaurant/profile/334",
      "profile_url": "http://www.opentable.com/restaurant/profile/334",
      "is_restaurant_in_group": false
    },
    {
      "rid": 336,
      "name": "One if by Land, Two if by Sea",
      "address": "17 Barrow St.",
      "address2": "",
      "city": "New York",
      "state": "NY",
      "country": "US",
      "latitude": "40.7323230",
      "longitude": "-74.0027300",
      "postal_code": "10014",
      "phone_number": "2122280822x",
      "metro_name": "New York / Tri-State Area",
      "reservation_url": "http://www.opentable.com/restaurant/profile/336",
      "profile_url": "http://www.opentable.com/restaurant/profile/336",
      "is_restaurant_in_group": false
    },
    {
      "rid": 337,
      "name": "Daniel",
      "address": "60 East 65th St.",
      "address2": "",
      "city": "New York",
      "state": "NY",
      "country": "US",
      "latitude": "40.7669100",
      "longitude": "-73.9676520",
      "postal_code": "10065",
      "phone_number": "2122880033x",
      "metro_name": "New York / Tri-State Area",
      "reservation_url": "http://www.opentable.com/restaurant/profile/337",
      "profile_url": "http://www.opentable.com/restaurant/profile/337",
      "is_restaurant_in_group": false
    },
    {
      "rid": 338,
      "name": "Alegrias Food from Spain",
      "address": "2018 Lombard",
      "address2": "",
      "city": "San Francisco",
      "state": "CA",
      "country": "US",
      "latitude": "37.8000830",
      "longitude": "-122.4348350",
      "postal_code": "94123",
      "phone_number": "4159298888x",
      "metro_name": "San Francisco Bay Area",
      "reservation_url": "http://www.opentable.com/restaurant/profile/338",
      "profile_url": "http://www.opentable.com/restaurant/profile/338",
      "is_restaurant_in_group": false
    },
    {
      "rid": 345,
      "name": "Bottino",
      "address": "246 10th Ave",
      "address2": "",
      "city": "New York",
      "state": "NY",
      "country": "US",
      "latitude": "40.7484760",
      "longitude": "-74.0033390",
      "postal_code": "10001",
      "phone_number": "2122066767",
      "metro_name": "New York / Tri-State Area",
      "reservation_url": "http://www.opentable.com/restaurant/profile/345",
      "profile_url": "http://www.opentable.com/restaurant/profile/345",
      "is_restaurant_in_group": false
    },
    {
      "rid": 349,
      "name": "Equinox - DC",
      "address": "818 Connecticut Ave",
      "address2": "N.W.",
      "city": "Washington",
      "state": "DC",
      "country": "US",
      "latitude": "38.9004370",
      "longitude": "-77.0382930",
      "postal_code": "20006",
      "phone_number": "2023318118",
      "metro_name": "Washington, D.C. Area",
      "reservation_url": "http://www.opentable.com/restaurant/profile/349",
      "profile_url": "http://www.opentable.com/restaurant/profile/349",
      "is_restaurant_in_group": false
    },
    {
      "rid": 358,
      "name": "Salty's on Alki Beach",
      "address": "1936 Harbor Ave. SW",
      "address2": "",
      "city": "Seattle",
      "state": "WA",
      "country": "US",
      "latitude": "47.5865450",
      "longitude": "-122.3772200",
      "postal_code": "98126",
      "phone_number": "2069371600x",
      "metro_name": "Seattle / Eastern Washington",
      "reservation_url": "http://www.opentable.com/restaurant/profile/358",
      "profile_url": "http://www.opentable.com/restaurant/profile/358",
      "is_restaurant_in_group": false
    },
    {
      "rid": 362,
      "name": "Meritage at the Claremont",
      "address": "41 Tunnel Road",
      "address2": "",
      "city": "Berkeley",
      "state": "CA",
      "country": "US",
      "latitude": "37.8574760",
      "longitude": "-122.2420200",
      "postal_code": "94705",
      "phone_number": "5105498510x",
      "metro_name": "San Francisco Bay Area",
      "reservation_url": "http://www.opentable.com/restaurant/profile/362",
      "profile_url": "http://www.opentable.com/restaurant/profile/362",
      "is_restaurant_in_group": false
    },
    {
      "rid": 377,
      "name": "i Ricchi",
      "address": "1220 19th Street, NW",
      "address2": "",
      "city": "Washington",
      "state": "DC",
      "country": "US",
      "latitude": "38.9065370",
      "longitude": "-77.0435750",
      "postal_code": "20036",
      "phone_number": "2028350459x",
      "metro_name": "Washington, D.C. Area",
      "reservation_url": "http://www.opentable.com/restaurant/profile/377",
      "profile_url": "http://www.opentable.com/restaurant/profile/377",
      "is_restaurant_in_group": false
    },
    {
      "rid": 380,
      "name": "Tavern on Rush",
      "address": "1031 N. Rush St.",
      "address2": "",
      "city": "Chicago",
      "state": "IL",
      "country": "US",
      "latitude": "41.9018040",
      "longitude": "-87.6279140",
      "postal_code": "60611",
      "phone_number": "3126649600x",
      "metro_name": "Chicago / Illinois",
      "reservation_url": "http://www.opentable.com/restaurant/profile/380",
      "profile_url": "http://www.opentable.com/restaurant/profile/380",
      "is_restaurant_in_group": false
    },
    {
      "rid": 385,
      "name": "Blue Ginger",
      "address": "583 Washington St.",
      "address2": "",
      "city": "Wellesley",
      "state": "MA",
      "country": "US",
      "latitude": "42.2953310",
      "longitude": "-71.2934800",
      "postal_code": "02482",
      "phone_number": "7812835790x",
      "metro_name": "Boston / New England",
      "reservation_url": "http://www.opentable.com/restaurant/profile/385",
      "profile_url": "http://www.opentable.com/restaurant/profile/385",
      "is_restaurant_in_group": false
    },
    {
      "rid": 389,
      "name": "The Park Bistro & Bar",
      "address": "3287 Mt. Diablo Blvd.",
      "address2": "",
      "city": "Lafayette",
      "state": "CA",
      "country": "US",
      "latitude": "37.8959960",
      "longitude": "-122.1010660",
      "postal_code": "94549",
      "phone_number": "9252837108x",
      "metro_name": "San Francisco Bay Area",
      "reservation_url": "http://www.opentable.com/restaurant/profile/389",
      "profile_url": "http://www.opentable.com/restaurant/profile/389",
      "is_restaurant_in_group": false
    },
    {
      "rid": 392,
      "name": "The Grill on the Alley - San Jose",
      "address": "172 South Market St.",
      "address2": "",
      "city": "San Jose",
      "state": "CA",
      "country": "US",
      "latitude": "37.3330210",
      "longitude": "-121.8897300",
      "postal_code": "95113",
      "phone_number": "4082942244",
      "metro_name": "San Francisco Bay Area",
      "reservation_url": "http://www.opentable.com/restaurant/profile/392",
      "profile_url": "http://www.opentable.com/restaurant/profile/392",
      "is_restaurant_in_group": false
    },
    {
      "rid": 394,
      "name": "Traxx",
      "address": "800 N. Alameda St.",
      "address2": "",
      "city": "Los Angeles",
      "state": "CA",
      "country": "US",
      "latitude": "34.0561960",
      "longitude": "-118.2372900",
      "postal_code": "90012",
      "phone_number": "2136251999x",
      "metro_name": "Los Angeles",
      "reservation_url": "http://www.opentable.com/restaurant/profile/394",
      "profile_url": "http://www.opentable.com/restaurant/profile/394",
      "is_restaurant_in_group": false
    },
    {
      "rid": 398,
      "name": "Sapphire",
      "address": "1845 Broadway",
      "address2": "",
      "city": "New York",
      "state": "NY",
      "country": "US",
      "latitude": "40.7693500",
      "longitude": "-73.9824800",
      "postal_code": "10023",
      "phone_number": "2122454444x",
      "metro_name": "New York / Tri-State Area",
      "reservation_url": "http://www.opentable.com/restaurant/profile/398",
      "profile_url": "http://www.opentable.com/restaurant/profile/398",
      "is_restaurant_in_group": false
    },
    {
      "rid": 403,
      "name": "Thalia",
      "address": "828 Eighth Avenue",
      "address2": "",
      "city": "New York",
      "state": "NY",
      "country": "US",
      "latitude": "40.7620810",
      "longitude": "-73.9861430",
      "postal_code": "10019",
      "phone_number": "2123994444x",
      "metro_name": "New York / Tri-State Area",
      "reservation_url": "http://www.opentable.com/restaurant/profile/403",
      "profile_url": "http://www.opentable.com/restaurant/profile/403",
      "is_restaurant_in_group": false
    },
    {
      "rid": 405,
      "name": "Wildfox",
      "address": "225 Alameda Del Prado",
      "address2": "",
      "city": "Novato",
      "state": "CA",
      "country": "US",
      "latitude": "38.0513510",
      "longitude": "-122.5322380",
      "postal_code": "94949",
      "phone_number": "4158839125x",
      "metro_name": "San Francisco Bay Area",
      "reservation_url": "http://www.opentable.com/restaurant/profile/405",
      "profile_url": "http://www.opentable.com/restaurant/profile/405",
      "is_restaurant_in_group": false
    },
    {
      "rid": 417,
      "name": "The Prime Rib",
      "address": "1701 Locust Street",
      "address2": "",
      "city": "Philadelphia",
      "state": "PA",
      "country": "US",
      "latitude": "39.9489600",
      "longitude": "-75.1695690",
      "postal_code": "19103",
      "phone_number": "2157721701",
      "metro_name": "Philadelphia / New Jersey Suburbs",
      "reservation_url": "http://www.opentable.com/restaurant/profile/417",
      "profile_url": "http://www.opentable.com/restaurant/profile/417",
      "is_restaurant_in_group": false
    },
    {
      "rid": 422,
      "name": "Piatti - Seattle",
      "address": "2695 NE Village Lane",
      "address2": "",
      "city": "Seattle",
      "state": "WA",
      "country": "US",
      "latitude": "47.6623810",
      "longitude": "-122.2906850",
      "postal_code": "98105",
      "phone_number": "2065249088x",
      "metro_name": "Seattle / Eastern Washington",
      "reservation_url": "http://www.opentable.com/restaurant/profile/422",
      "profile_url": "http://www.opentable.com/restaurant/profile/422",
      "is_restaurant_in_group": false
    },
    {
      "rid": 425,
      "name": "Level Two",
      "address": "633 North Saint Clair",
      "address2": "",
      "city": "Chicago",
      "state": "IL",
      "country": "US",
      "latitude": "41.8935910",
      "longitude": "-87.6226150",
      "postal_code": "60611",
      "phone_number": "3122744444x",
      "metro_name": "Chicago / Illinois",
      "reservation_url": "http://www.opentable.com/restaurant/profile/425",
      "profile_url": "http://www.opentable.com/restaurant/profile/425",
      "is_restaurant_in_group": false
    },
    {
      "rid": 428,
      "name": "The Prime Rib",
      "address": "2020 K Street, NW",
      "address2": "",
      "city": "Washington",
      "state": "DC",
      "country": "US",
      "latitude": "38.9022630",
      "longitude": "-77.0458050",
      "postal_code": "20006",
      "phone_number": "2024668811",
      "metro_name": "Washington, D.C. Area",
      "reservation_url": "http://www.opentable.com/restaurant/profile/428",
      "profile_url": "http://www.opentable.com/restaurant/profile/428",
      "is_restaurant_in_group": false
    },
    {
      "rid": 433,
      "name": "Bistro Bis",
      "address": "15 E Street, NW",
      "address2": "",
      "city": "Washington",
      "state": "DC",
      "country": "US",
      "latitude": "38.8963370",
      "longitude": "-77.0098580",
      "postal_code": "20001",
      "phone_number": "2026612700",
      "metro_name": "Washington, D.C. Area",
      "reservation_url": "http://www.opentable.com/restaurant/profile/433",
      "profile_url": "http://www.opentable.com/restaurant/profile/433",
      "is_restaurant_in_group": false
    },
    {
      "rid": 440,
      "name": "Cafe Torre",
      "address": "20343 Stevens Creek Blvd",
      "address2": "",
      "city": "Cupertino",
      "state": "CA",
      "country": "US",
      "latitude": "37.3229840",
      "longitude": "-122.0290640",
      "postal_code": "95014",
      "phone_number": "4082572383x",
      "metro_name": "San Francisco Bay Area",
      "reservation_url": "http://www.opentable.com/restaurant/profile/440",
      "profile_url": "http://www.opentable.com/restaurant/profile/440",
      "is_restaurant_in_group": false
    }
  ]
}